{"businesses":[{"id":"C74IFHFYlhfp6eyt8mNeVQ","alias":"chicken-maison-torrance-5","name":"Chicken Maison","image_url":"https://s3-media1.fl.yelpcdn.com/bphoto/9_cgw5wTYPrKlmLuzXXnVQ/o.jpg","is_closed":false,"url":"https://www.yelp.com/biz/chicken-maison-torrance-5?adjust_creative=8kSHC2roFbxDvPMsKXpimA&utm_campaign=yelp_api_v3&utm_medium=api_v3_business_search&utm_source=8kSHC2roFbxDvPMsKXpimA","review_count":103,"categories":[{"alias":"mediterranean","title":"Mediterranean"},{"alias":"mideastern","title":"Middle Eastern"},{"alias":"greek","title":"Greek"}],"rating":4.5,"coordinates":{"latitude":33.8302806071187,"longitude":-118.29019691793},"transactions":[],"price":"$$","location":{"address1":"21732 S Vermont Ave","address2":"","address3":null,"city":"Torrance","zip_code":"90502","country":"US","state":"CA","display_address":["21732 S Vermont Ave","Torrance, CA 90502"]},"phone":"+14242717920","display_phone":"(424) 271-7920","distance":443.8135946944555},{"id":"k3vBsWFKwyAbndHWcI8jIw","alias":"chinchikurin-torrance-2","name":"Chinchikurin","image_url":"https://s3-media4.fl.yelpcdn.com/bphoto/sUH6-1amjWFudSKJlaOrWQ/o.jpg","is_closed":false,"url":"https://www.yelp.com/biz/chinchikurin-torrance-2?adjust_creative=8kSHC2roFbxDvPMsKXpimA&utm_campaign=yelp_api_v3&utm_medium=api_v3_business_search&utm_source=8kSHC2roFbxDvPMsKXpimA","review_count":23,"categories":[{"alias":"teppanyaki","title":"Teppanyaki"}],"rating":4.5,"coordinates":{"latitude":33.8320974158437,"longitude":-118.309671860081},"transactions":[],"price":"$$","location":{"address1":"1725 W Carson St","address2":"Ste B","address3":null,"city":"Torrance","zip_code":"90501","country":"US","state":"CA","display_address":["1725 W Carson St","Ste B","Torrance, CA 90501"]},"phone":"+13105335003","display_phone":"(310) 533-5003","distance":1626.4908675781187},{"id":"CvzsRkx66hytE5iTkzBvWQ","alias":"hiccups-carson","name":"Hiccups","image_url":"https://s3-media2.fl.yelpcdn.com/bphoto/2biBtXDXJlPee6rnOFm3lQ/o.jpg","is_closed":false,"url":"https://www.yelp.com/biz/hiccups-carson?adjust_creative=8kSHC2roFbxDvPMsKXpimA&utm_campaign=yelp_api_v3&utm_medium=api_v3_business_search&utm_source=8kSHC2roFbxDvPMsKXpimA","review_count":985,"categories":[{"alias":"vietnamese","title":"Vietnamese"},{"alias":"thai","title":"Thai"},{"alias":"bubbletea","title":"Bubble Tea"}],"rating":3.5,"coordinates":{"latitude":33.8314451,"longitude":-118.2665962},"transactions":["pickup","delivery"],"price":"$$","location":{"address1":"552 E Carson St","address2":"Ste 103","address3":"","city":"Carson","zip_code":"90745","country":"US","state":"CA","display_address":["552 E Carson St","Ste 103","Carson, CA 90745"]},"phone":"+13106841926","display_phone":"(310) 684-1926","distance":2414.4088469918684},{"id":"VccwrYaGlGquqr6QYdS4rA","alias":"bahay-kainan-baboys-carson","name":"Bahay Kainan/BaBoys","image_url":"https://s3-media4.fl.yelpcdn.com/bphoto/mg6AMfFQXJ6kKlR0mZ_BZg/o.jpg","is_closed":false,"url":"https://www.yelp.com/biz/bahay-kainan-baboys-carson?adjust_creative=8kSHC2roFbxDvPMsKXpimA&utm_campaign=yelp_api_v3&utm_medium=api_v3_business_search&utm_source=8kSHC2roFbxDvPMsKXpimA","review_count":134,"categories":[{"alias":"filipino","title":"Filipino"},{"alias":"asianfusion","title":"Asian Fusion"}],"rating":4.5,"coordinates":{"latitude":33.83096,"longitude":-118.27117},"transactions":[],"price":"$","location":{"address1":"330 E Carson St","address2":"Ste A","address3":"","city":"Carson","zip_code":"90745","country":"US","state":"CA","display_address":["330 E Carson St","Ste A","Carson, CA 90745"]},"phone":"+13105186273","display_phone":"(310) 518-6273","distance":1963.0675695897094},{"id":"7JJwekNThsLUU4hV61HWsA","alias":"madre-torrance","name":"Madre","image_url":"https://s3-media3.fl.yelpcdn.com/bphoto/jdBqfjdGdXe6EsVLu7RMtg/o.jpg","is_closed":false,"url":"https://www.yelp.com/biz/madre-torrance?adjust_creative=8kSHC2roFbxDvPMsKXpimA&utm_campaign=yelp_api_v3&utm_medium=api_v3_business_search&utm_source=8kSHC2roFbxDvPMsKXpimA","review_count":617,"categories":[{"alias":"mexican","title":"Mexican"},{"alias":"cocktailbars","title":"Cocktail Bars"}],"rating":4,"coordinates":{"latitude":33.8353545,"longitude":-118.3146145},"transactions":["restaurant_reservation","pickup","delivery"],"price":"$$","location":{"address1":"1261 Cabrillo Ave","address2":"Ste 100","address3":"","city":"Torrance","zip_code":"90501","country":"US","state":"CA","display_address":["1261 Cabrillo Ave","Ste 100","Torrance, CA 90501"]},"phone":"+13109748005","display_phone":"(310) 974-8005","distance":2096.979212315688},{"id":"lKDmhZDPckEHLlLgoBP1xg","alias":"top-tenders-and-wings-torrance","name":"Top Tenders & Wings","image_url":"https://s3-media2.fl.yelpcdn.com/bphoto/DQ4fmN3-zzj6q6VGImDOUw/o.jpg","is_closed":false,"url":"https://www.yelp.com/biz/top-tenders-and-wings-torrance?adjust_creative=8kSHC2roFbxDvPMsKXpimA&utm_campaign=yelp_api_v3&utm_medium=api_v3_business_search&utm_source=8kSHC2roFbxDvPMsKXpimA","review_count":157,"categories":[{"alias":"chickenshop","title":"Chicken Shop"},{"alias":"chicken_wings","title":"Chicken Wings"}],"rating":4.5,"coordinates":{"latitude":33.80697,"longitude":-118.35492},"transactions":[],"location":{"address1":"3901 Pacific Coast Hwy","address2":"Ste A","address3":"","city":"Torrance","zip_code":"90505","country":"US","state":"CA","display_address":["3901 Pacific Coast Hwy","Ste A","Torrance, CA 90505"]},"phone":"+14242578126","display_phone":"(424) 257-8126","distance":6514.784799069564},{"id":"fJh6sLt1aWf_9L1eLVsckw","alias":"silog-torrance-2","name":"Silog","image_url":"https://s3-media3.fl.yelpcdn.com/bphoto/fC4tead_bn0Ly7gz1eIB_w/o.jpg","is_closed":false,"url":"https://www.yelp.com/biz/silog-torrance-2?adjust_creative=8kSHC2roFbxDvPMsKXpimA&utm_campaign=yelp_api_v3&utm_medium=api_v3_business_search&utm_source=8kSHC2roFbxDvPMsKXpimA","review_count":394,"categories":[{"alias":"filipino","title":"Filipino"},{"alias":"comfortfood","title":"Comfort Food"},{"alias":"asianfusion","title":"Asian Fusion"}],"rating":4,"coordinates":{"latitude":33.81614,"longitude":-118.30486},"transactions":["pickup","delivery"],"price":"$","location":{"address1":"1555 Sepulveda Blvd","address2":"","address3":"","city":"Torrance","zip_code":"90501","country":"US","state":"CA","display_address":["1555 Sepulveda Blvd","Torrance, CA 90501"]},"phone":"+14242635961","display_phone":"(424) 263-5961","distance":2291.4024319841255},{"id":"g3EBQDVQ2ycTmp9uYcW_Vw","alias":"jollibee-carson","name":"Jollibee","image_url":"https://s3-media2.fl.yelpcdn.com/bphoto/7e6Bdw6_bURHLwlaVPZU4w/o.jpg","is_closed":false,"url":"https://www.yelp.com/biz/jollibee-carson?adjust_creative=8kSHC2roFbxDvPMsKXpimA&utm_campaign=yelp_api_v3&utm_medium=api_v3_business_search&utm_source=8kSHC2roFbxDvPMsKXpimA","review_count":278,"categories":[{"alias":"filipino","title":"Filipino"}],"rating":2.5,"coordinates":{"latitude":33.8318149,"longitude":-118.2796214},"transactions":[],"price":"$","location":{"address1":"139 W Carson St","address2":"","address3":"","city":"Carson","zip_code":"90745","country":"US","state":"CA","display_address":["139 W Carson St","Carson, CA 90745"]},"phone":"+13105131941","display_phone":"(310) 513-1941","distance":1174.9494185524059},{"id":"4klkb6Nt5FyKM2SwmocIbg","alias":"tacos-el-chapulin-long-beach","name":"Tacos El Chapulin","image_url":"https://s3-media2.fl.yelpcdn.com/bphoto/V9eCNzCzs-zry3CO0Hp0Tw/o.jpg","is_closed":false,"url":"https://www.yelp.com/biz/tacos-el-chapulin-long-beach?adjust_creative=8kSHC2roFbxDvPMsKXpimA&utm_campaign=yelp_api_v3&utm_medium=api_v3_business_search&utm_source=8kSHC2roFbxDvPMsKXpimA","review_count":1,"categories":[{"alias":"streetvendors","title":"Street Vendors"},{"alias":"tacos","title":"Tacos"}],"rating":5,"coordinates":{"latitude":33.780534567256,"longitude":-118.253669354532},"transactions":[],"location":{"address1":"801 E Anaheim St","address2":"","address3":null,"city":"Long Beach","zip_code":"90813","country":"US","state":"CA","display_address":["801 E Anaheim St","Long Beach, CA 90813"]},"phone":"","display_phone":"","distance":6920.715462563469},{"id":"whWBo96VSSsF8i_XFfRM6w","alias":"mitsuwa-marketplace-torrance","name":"Mitsuwa Marketplace","image_url":"https://s3-media2.fl.yelpcdn.com/bphoto/o8lTBE2WNWz9IdZUaWvlNg/o.jpg","is_closed":false,"url":"https://www.yelp.com/biz/mitsuwa-marketplace-torrance?adjust_creative=8kSHC2roFbxDvPMsKXpimA&utm_campaign=yelp_api_v3&utm_medium=api_v3_business_search&utm_source=8kSHC2roFbxDvPMsKXpimA","review_count":940,"categories":[{"alias":"intlgrocery","title":"International Grocery"},{"alias":"cosmetics","title":"Cosmetics & Beauty Supply"},{"alias":"appliances","title":"Appliances"}],"rating":4.5,"coordinates":{"latitude":33.83339,"longitude":-118.309687},"transactions":[],"price":"$$","location":{"address1":"21515 Western Ave","address2":"","address3":"","city":"Torrance","zip_code":"90501","country":"US","state":"CA","display_address":["21515 Western Ave","Torrance, CA 90501"]},"phone":"+13107820335","display_phone":"(310) 782-0335","distance":1616.3829702856349},{"id":"dcfpU3LkpLNy9owKqV1Yvw","alias":"the-buffalo-spot-carson","name":"The Buffalo Spot","image_url":"https://s3-media4.fl.yelpcdn.com/bphoto/mlhyIcBWO8aOr5v4jtGFtA/o.jpg","is_closed":false,"url":"https://www.yelp.com/biz/the-buffalo-spot-carson?adjust_creative=8kSHC2roFbxDvPMsKXpimA&utm_campaign=yelp_api_v3&utm_medium=api_v3_business_search&utm_source=8kSHC2roFbxDvPMsKXpimA","review_count":186,"categories":[{"alias":"chicken_wings","title":"Chicken Wings"},{"alias":"tradamerican","title":"American (Traditional)"}],"rating":3.5,"coordinates":{"latitude":33.8318149,"longitude":-118.2814284},"transactions":[],"price":"$$","location":{"address1":"241 West Carson St","address2":"","address3":null,"city":"Carson","zip_code":"90745","country":"US","state":"CA","display_address":["241 West Carson St","Carson, CA 90745"]},"phone":"+14243640344","display_phone":"(424) 364-0344","distance":1021.455848960738},{"id":"M0HxQvHzhtgFPe1-DmwYjA","alias":"din-tai-fung-torrance-5","name":"Din Tai Fung","image_url":"https://s3-media4.fl.yelpcdn.com/bphoto/IncIiKJeZjD8vRi02bzICA/o.jpg","is_closed":false,"url":"https://www.yelp.com/biz/din-tai-fung-torrance-5?adjust_creative=8kSHC2roFbxDvPMsKXpimA&utm_campaign=yelp_api_v3&utm_medium=api_v3_business_search&utm_source=8kSHC2roFbxDvPMsKXpimA","review_count":1268,"categories":[{"alias":"taiwanese","title":"Taiwanese"},{"alias":"shanghainese","title":"Shanghainese"},{"alias":"dimsum","title":"Dim Sum"}],"rating":4,"coordinates":{"latitude":33.832857986225,"longitude":-118.350350262509},"transactions":["restaurant_reservation"],"price":"$$","location":{"address1":"21540 Hawthorne Blvd","address2":"Ste 519","address3":null,"city":"Torrance","zip_code":"90503","country":"US","state":"CA","display_address":["21540 Hawthorne Blvd","Ste 519","Torrance, CA 90503"]},"phone":"+13102141175","display_phone":"(310) 214-1175","distance":5372.494453465386},{"id":"4-sqJnPMwLd9uR95vuNLTQ","alias":"top-shelf-tacos-carson","name":"Top Shelf Tacos","image_url":"https://s3-media1.fl.yelpcdn.com/bphoto/BEpDkzm4SaDcvcI0YeTyMA/o.jpg","is_closed":false,"url":"https://www.yelp.com/biz/top-shelf-tacos-carson?adjust_creative=8kSHC2roFbxDvPMsKXpimA&utm_campaign=yelp_api_v3&utm_medium=api_v3_business_search&utm_source=8kSHC2roFbxDvPMsKXpimA","review_count":767,"categories":[{"alias":"mexican","title":"Mexican"}],"rating":4.5,"coordinates":{"latitude":33.8116595718691,"longitude":-118.26473426274},"transactions":[],"price":"$","location":{"address1":"23551 S Avalon Blvd","address2":null,"address3":"","city":"Carson","zip_code":"90745","country":"US","state":"CA","display_address":["23551 S Avalon Blvd","Carson, CA 90745"]},"phone":"+14243640123","display_phone":"(424) 364-0123","distance":3543.64172060898},{"id":"fdN0_Rimi2-AKUjAhtKirw","alias":"hokkaido-ramen-santouka-torrance","name":"Hokkaido Ramen Santouka","image_url":"https://s3-media2.fl.yelpcdn.com/bphoto/ty-75F2LmYOpbGu8Tq4K-w/o.jpg","is_closed":false,"url":"https://www.yelp.com/biz/hokkaido-ramen-santouka-torrance?adjust_creative=8kSHC2roFbxDvPMsKXpimA&utm_campaign=yelp_api_v3&utm_medium=api_v3_business_search&utm_source=8kSHC2roFbxDvPMsKXpimA","review_count":1125,"categories":[{"alias":"ramen","title":"Ramen"}],"rating":4.5,"coordinates":{"latitude":33.8335310885164,"longitude":-118.310027782801},"transactions":[],"price":"$$","location":{"address1":"21515 Western Ave","address2":"","address3":"Mitsuwa Market Place","city":"Torrance","zip_code":"90501","country":"US","state":"CA","display_address":["21515 Western Ave","Mitsuwa Market Place","Torrance, CA 90501"]},"phone":"+13102121101","display_phone":"(310) 212-1101","distance":1647.363163164156},{"id":"wv1ZZLWrFh4Hc7MCQ1kjJA","alias":"darrows-new-orleans-grill-carson","name":"Darrow's New Orleans Grill","image_url":"https://s3-media1.fl.yelpcdn.com/bphoto/LvzeQFEHTNvNIMbdQmt59A/o.jpg","is_closed":false,"url":"https://www.yelp.com/biz/darrows-new-orleans-grill-carson?adjust_creative=8kSHC2roFbxDvPMsKXpimA&utm_campaign=yelp_api_v3&utm_medium=api_v3_business_search&utm_source=8kSHC2roFbxDvPMsKXpimA","review_count":738,"categories":[{"alias":"cajun","title":"Cajun/Creole"},{"alias":"bars","title":"Bars"},{"alias":"breakfast_brunch","title":"Breakfast & Brunch"}],"rating":4.5,"coordinates":{"latitude":33.83073,"longitude":-118.26305},"transactions":[],"price":"$$","location":{"address1":"21720 Avalon Blvd","address2":"Ste 102B","address3":"","city":"Carson","zip_code":"90745","country":"US","state":"CA","display_address":["21720 Avalon Blvd","Ste 102B","Carson, CA 90745"]},"phone":"+14245700531","display_phone":"(424) 570-0531","distance":2674.630827216047},{"id":"JwWHm4tRdc05w5413EdQ4A","alias":"the-crab-shack-carson","name":"The Crab Shack","image_url":"https://s3-media1.fl.yelpcdn.com/bphoto/mQnj7MDU91dWs2fSFh_Rwg/o.jpg","is_closed":false,"url":"https://www.yelp.com/biz/the-crab-shack-carson?adjust_creative=8kSHC2roFbxDvPMsKXpimA&utm_campaign=yelp_api_v3&utm_medium=api_v3_business_search&utm_source=8kSHC2roFbxDvPMsKXpimA","review_count":241,"categories":[{"alias":"seafood","title":"Seafood"},{"alias":"cajun","title":"Cajun/Creole"}],"rating":4,"coordinates":{"latitude":33.831494,"longitude":-118.266285},"transactions":[],"price":"$$","location":{"address1":"552 E Carson St","address2":"Ste 101","address3":null,"city":"Carson","zip_code":"90745","country":"US","state":"CA","display_address":["552 E Carson St","Ste 101","Carson, CA 90745"]},"phone":"+14243370111","display_phone":"(424) 337-0111","distance":2408.512612460759},{"id":"__Y-6qeCR98is7ZLEf9RNg","alias":"ramen-izakaya-ajido-torrance-2","name":"Ramen Izakaya Ajido","image_url":"https://s3-media4.fl.yelpcdn.com/bphoto/ULkQm0tyi-nSGeSEYJ5zXw/o.jpg","is_closed":false,"url":"https://www.yelp.com/biz/ramen-izakaya-ajido-torrance-2?adjust_creative=8kSHC2roFbxDvPMsKXpimA&utm_campaign=yelp_api_v3&utm_medium=api_v3_business_search&utm_source=8kSHC2roFbxDvPMsKXpimA","review_count":254,"categories":[{"alias":"ramen","title":"Ramen"}],"rating":4,"coordinates":{"latitude":33.8163012,"longitude":-118.3095359},"transactions":["pickup"],"price":"$","location":{"address1":"1730 W Sepulveda Blvd","address2":"Ste 6","address3":"","city":"Torrance","zip_code":"90501","country":"US","state":"CA","display_address":["1730 W Sepulveda Blvd","Ste 6","Torrance, CA 90501"]},"phone":"+13105341698","display_phone":"(310) 534-1698","distance":2529.5145391218452},{"id":"Xhl3ry8WxEVwHiwZ9h5pgw","alias":"kang-ho-dong-baekjeong-torrance","name":"Kang Ho Dong Baekjeong","image_url":"https://s3-media1.fl.yelpcdn.com/bphoto/QZwk2CHA3I_F6UJ0ST-tpw/o.jpg","is_closed":false,"url":"https://www.yelp.com/biz/kang-ho-dong-baekjeong-torrance?adjust_creative=8kSHC2roFbxDvPMsKXpimA&utm_campaign=yelp_api_v3&utm_medium=api_v3_business_search&utm_source=8kSHC2roFbxDvPMsKXpimA","review_count":985,"categories":[{"alias":"korean","title":"Korean"},{"alias":"bbq","title":"Barbeque"}],"rating":4.5,"coordinates":{"latitude":33.831758942695,"longitude":-118.310062790731},"transactions":[],"price":"$$","location":{"address1":"1725 W Carson St","address2":"Ste A","address3":"","city":"Torrance","zip_code":"90501","country":"US","state":"CA","display_address":["1725 W Carson St","Ste A","Torrance, CA 90501"]},"phone":"+13103209678","display_phone":"(310) 320-9678","distance":1667.3105213113952},{"id":"dU4Ib6XiHO48C8cobvT58g","alias":"kuya-nics-kitchen-carson-2","name":"Kuya Nic's Kitchen","image_url":"https://s3-media1.fl.yelpcdn.com/bphoto/FN6lPPjRdVA-Yghea-Nj8Q/o.jpg","is_closed":false,"url":"https://www.yelp.com/biz/kuya-nics-kitchen-carson-2?adjust_creative=8kSHC2roFbxDvPMsKXpimA&utm_campaign=yelp_api_v3&utm_medium=api_v3_business_search&utm_source=8kSHC2roFbxDvPMsKXpimA","review_count":34,"categories":[{"alias":"filipino","title":"Filipino"},{"alias":"bbq","title":"Barbeque"}],"rating":4.5,"coordinates":{"latitude":33.82778,"longitude":-118.2774},"transactions":[],"price":"$","location":{"address1":"22005 S Main St","address2":null,"address3":"","city":"Carson","zip_code":"90745","country":"US","state":"CA","display_address":["22005 S Main St","Carson, CA 90745"]},"phone":"+13108723752","display_phone":"(310) 872-3752","distance":1532.2670406665402},{"id":"KegZwKVlr8xPklQFHP_n9A","alias":"sushi-n-go-torrance","name":"Sushi N Go","image_url":"https://s3-media2.fl.yelpcdn.com/bphoto/OWe0noqpqTfFAyf-lnm-zw/o.jpg","is_closed":false,"url":"https://www.yelp.com/biz/sushi-n-go-torrance?adjust_creative=8kSHC2roFbxDvPMsKXpimA&utm_campaign=yelp_api_v3&utm_medium=api_v3_business_search&utm_source=8kSHC2roFbxDvPMsKXpimA","review_count":688,"categories":[{"alias":"sushi","title":"Sushi Bars"}],"rating":4.5,"coordinates":{"latitude":33.83694,"longitude":-118.3293},"transactions":[],"price":"$","location":{"address1":"2515 Torrance Blvd","address2":"","address3":"","city":"Torrance","zip_code":"90503","country":"US","state":"CA","display_address":["2515 Torrance Blvd","Torrance, CA 90503"]},"phone":"+13106138919","display_phone":"(310) 613-8919","distance":3450.976938098049}],"total":3800,"region":{"center":{"longitude":-118.29219818115234,"latitude":33.83390924967921}}}